[{"title": "Nicole Cerminara", "description": "Ravine Vineyard Estate Winery", "date": "Jul. 9th, 2021", "address": "1366 York Rd, Niagara-on-the-Lake, Canada", "about": null, "hours": "11:30 AM", "local": "Ravine Vineyard Estate Winery", "image": "https://photos.bandsintown.com/thumb/8713292.jpeg"}, {"title": "Chillbillys WNY", "description": "Chillin' At Bonafest!", "date": "Jul. 9th, 2021", "address": "3261 W State St, Saint Bonaventure, NY 14778", "about": null, "hours": "6:00 PM", "local": "St. Bonaventure University", "image": "https://photos.bandsintown.com/thumb/10483145.jpeg"}, {"title": "WELCOME DISTRACTION", "description": "Members only event @ Redman Club Lockport", "date": "Jul. 9th, 2021", "address": "25 W Main St, Lockport, NY 14094", "about": null, "hours": "6:00 PM", "local": "The Redman Club", "image": "https://photos.bandsintown.com/thumb/10068508.jpeg"}, {"title": "XOXO Pop Band", "description": "XOXO at Thin Man Chandler Street", "date": "Jul. 9th, 2021", "address": "166 Chandler St, Buffalo, NY 14207", "about": null, "hours": "7:00 PM", "local": "Thin Man Brewery at Chandler Street", "image": "https://photos.bandsintown.com/thumb/9049355.jpeg"}, {"title": "Don Felder", "description": "Batavia Downs Gaming", "date": "Jul. 9th, 2021", "address": "8315 Park Rd, Batavia, NY 14020", "about": null, "hours": "7:00 PM", "local": "Batavia Downs Gaming", "image": "https://photos.bandsintown.com/thumb/9078122.jpeg"}, {"title": "JD Casper", "description": "The Gin Mill", "date": "Jul. 9th, 2021", "address": "26 Washington St, Ellicottville, NY 14731", "about": null, "hours": "8:00 PM", "local": "The Gin Mill", "image": "https://photos.bandsintown.com/thumb/11313908.jpeg"}, {"title": "McKinley James", "description": "The Cave", "date": "Jul. 9th, 2021", "address": "71 Military, Buffalo, NY 14207", "about": "Rock n Roll Show!", "hours": "8:00 PM", "local": "The Cave", "image": "https://photos.bandsintown.com/thumb/11360502.jpeg"}, {"title": "Miller and The Other Sinners", "description": "Miller and The Other Sinners DUO at River Grill", "date": "Jul. 10th, 2021", "address": "70 Aqua Ln, Tonawanda, NY 14150", "about": "David Michael Miller and Steve Davis of southern soul band, Miller and The Other Sinners will be jamming outside at River Grill.", "hours": "1:00 PM", "local": "River Grill", "image": "https://photos.bandsintown.com/thumb/11313377.jpeg"}, {"title": "Marye Lobb", "description": "Private Event", "date": "Jul. 10th, 2021", "address": "Silver Creek, NY", "about": null, "hours": "1:30 PM", "local": "Private Event", "image": "https://photos.bandsintown.com/thumb/8718326.jpeg"}, {"title": "Mike Nash & Southern Drawl Band", "description": "Boonefest House Concert", "date": "Jul. 10th, 2021", "address": "Franklinville, NY", "about": "Join me for Boonefest 2021!\nDoors open at 1pm\nOpening band at 2pm\nMike Nash 4pm\nBYOB and bring a chair. $20 at the door", "hours": "4:00 PM", "local": "Boonefest House Concert", "image": "https://photos.bandsintown.com/thumb/9781675.jpeg"}, {"title": "Miller and The Other Sinners", "description": "Miller and The Other Sinners at West Falls Center for the Arts", "date": "Jul. 10th, 2021", "address": "1863 Davis Rd, West Falls, NY 14170", "about": "Nationally touring southern soul band, Miller and The Other Sinners, based out of NY, brings its sound to the West Falls Creative Arts Center.", "hours": "7:00 PM", "local": "West Falls Center for the Arts", "image": "https://photos.bandsintown.com/thumb/11313380.jpeg"}, {"title": "Bad Kitty", "description": "The Rapids Theatre", "date": "Jul. 10th, 2021", "address": "1711 Main St, Niagara Falls, NY 14305", "about": null, "hours": "7:00 PM", "local": "The Rapids Theatre", "image": "https://assets.prod.bandsintown.com/images/fallbackImage.png"}, {"title": "Bad Kitty Band", "description": "Bad Kitty ROCKS Benefit Concert @ Rapids Theater", "date": "Jul. 10th, 2021", "address": "1711 Main St, Niagara Falls, NY 14305", "about": "Join us as we rock the night away to raise fund and awareness for Domestic Violence. A portion of the proceeds from this event will benefit the Haven House, Child & Famil...", "hours": "7:00 PM", "local": "The Rapids Theatre", "image": "https://photos.bandsintown.com/thumb/11303788.jpeg"}, {"title": "Grub", "description": "Grub Live at Jack Rabbit", "date": "Jul. 10th, 2021", "address": "1010 Elmwood Ave, Buffalo, NY 14222", "about": "Grub hits the stage at this new amazing venue in the heart of Buffalo.", "hours": "9:00 PM", "local": "Jack Rabbit", "image": "https://photos.bandsintown.com/thumb/11326874.jpeg"}, {"title": "Travis Rocco", "description": "Travis Rocco LIVE @ New York Beer Project Lockport", "date": "Jul. 12th, 2021", "address": "6933 S Transit Rd, Lockport, NY 14094", "about": "Lockport location", "hours": "6:00 PM", "local": "New York Beer Project", "image": "https://photos.bandsintown.com/thumb/11475281.jpeg"}, {"title": "Tedeschi Trucks Band", "description": "Artpark Amphitheatre", "date": "Jul. 13th, 2021", "address": "450 South 4th St., Lewiston, NY 14092", "about": "Tickets: https://www.tedeschitrucksband.com/tour", "hours": "5:30 PM", "local": "Artpark Amphitheatre", "image": "https://photos.bandsintown.com/thumb/10430940.jpeg"}, {"title": "Chris Bethmann", "description": "Chris Bethmann at Penny Lane", "date": "Jul. 13th, 2021", "address": "10255 Main St, Clarence, NY 14031", "about": null, "hours": "7:00 PM", "local": "Penny Lane Cafe", "image": "https://photos.bandsintown.com/thumb/8653522.jpeg"}, {"title": "Chillbillys WNY", "description": "Cruise night chillin at the station!!", "date": "Jul. 14th, 2021", "address": "5386 Depot St, West Valley, NY 14171", "about": null, "hours": "5:00 PM", "local": "The Station Bistro", "image": "https://photos.bandsintown.com/thumb/10483145.jpeg"}, {"title": "Lettuce", "description": "Artpark", "date": "Jul. 14th, 2021", "address": "450 S 4th St, Lewiston, NY 14092", "about": null, "hours": "7:00 PM", "local": "Artpark", "image": "https://photos.bandsintown.com/thumb/11369316.jpeg"}, {"title": "Ranky Tanky", "description": "Chautauqua Institution", "date": "Jul. 14th, 2021", "address": "1 Ames Ave, Chautauqua, NY 14722", "about": null, "hours": "8:15 PM", "local": "Chautauqua Institution", "image": "https://photos.bandsintown.com/thumb/11358147.jpeg"}, {"title": "Nicole Cerminara", "description": "Ravine Vineyard Estate Winery", "date": "Jul. 15th, 2021", "address": "1366 York Rd, Niagara-on-the-Lake, Canada", "about": null, "hours": "12:00 PM", "local": "Ravine Vineyard Estate Winery", "image": "https://photos.bandsintown.com/thumb/8713292.jpeg"}, {"title": "McKinley James", "description": "Buffalo Place Inc", "date": "Jul. 15th, 2021", "address": "671 Main St, Buffalo, NY 14203", "about": null, "hours": "5:00 PM", "local": "Buffalo Place Inc", "image": "https://photos.bandsintown.com/thumb/11360502.jpeg"}, {"title": "The Probables", "description": "Lakeside Park", "date": "Jul. 15th, 2021", "address": "Mayville, Mayville, NY 14757", "about": "Thursday July 15th 2021\nMayville/Chautauqua Community Chamber of Commerce Summer Series Lakeside Park (Gazebo),Mayville,NY 6:30pm", "hours": "6:30 PM", "local": "Lakeside Park", "image": "https://photos.bandsintown.com/thumb/11159623.jpeg"}, {"title": "Mayday Buffalo", "description": "Lloyd Taco Factory 7-9pm", "date": "Jul. 15th, 2021", "address": "5933 Main St, Williamsville, NY 14221", "about": "7-9 PM\n5933 Main St, Williamsville, NY 14221", "hours": "7:00 PM", "local": "lloyd Taco Factory", "image": "https://photos.bandsintown.com/thumb/11449888.jpeg"}, {"title": "Chillbillys WNY", "description": "Gin Mill Chillin in Ellicottville NY!", "date": "Jul. 15th, 2021", "address": "26 Washington St, Ellicottville, NY 14731", "about": null, "hours": "8:00 PM", "local": "The Gin Mill", "image": "https://photos.bandsintown.com/thumb/10483145.jpeg"}, {"title": "Kerry Fey", "description": "*Music* @ Mohawk Place with Anxious Kids Make Good People, Jen Karlis and Courtney Wofford", "date": "Jul. 15th, 2021", "address": "47 E Mohawk St, Buffalo, NY 14203", "about": "Joining a musical lineup with Anxious Kids Make Good People, Jen Karlis and Courtney Wofford.", "hours": "8:00 PM", "local": "MOHAWK PLACE", "image": "https://photos.bandsintown.com/thumb/11026447.jpeg"}, {"title": "Nicole Cerminara", "description": "Ravine Vineyard Estate Winery", "date": "Jul. 16th, 2021", "address": "1366 York Rd, Niagara-on-the-Lake, Canada", "about": null, "hours": "11:30 AM", "local": "Ravine Vineyard Estate Winery", "image": "https://photos.bandsintown.com/thumb/8713292.jpeg"}, {"title": "Chillbillys WNY", "description": "Chillin At the Old Library", "date": "Jul. 16th, 2021", "address": "116 S Union St, Olean, NY 14760", "about": null, "hours": "5:30 PM", "local": "The Old Library Restaurant", "image": "https://photos.bandsintown.com/thumb/10483145.jpeg"}, {"title": "Five To One", "description": "Five To One at Sportsmen's Tavern", "date": "Jul. 16th, 2021", "address": "326 Amherst St, Buffalo, NY 14207", "about": "Happy Hour Show at Sportsmen's Tavern", "hours": "5:30 PM", "local": "Sportsmen's Tavern", "image": "https://photos.bandsintown.com/thumb/11072031.jpeg"}, {"title": "NERDS GONE WILD", "description": "NERDS GONE WILD (Private Event)", "date": "Jul. 16th, 2021", "address": "4777 S Buffalo St, Orchard Park, NY 14127", "about": "Nerds Gone Wild @ Private Event Performance.", "hours": "6:00 PM", "local": "Orchard Park Country Club", "image": "https://photos.bandsintown.com/thumb/11374205.jpeg"}, {"title": "Kurt", "description": "Rec Room", "date": "Jul. 16th, 2021", "address": "79 W Chippewa, Buffalo, NY 14202", "about": null, "hours": "6:00 PM", "local": "Rec Room", "image": "https://assets.prod.bandsintown.com/images/fallbackImage.png"}, {"title": "Nicole Cerminara", "description": "Mick & Angelo's Kitchen + Bar", "date": "Jul. 16th, 2021", "address": "7600 Lundy's Ln, Niagara Falls, Canada", "about": null, "hours": "7:00 PM", "local": "Mick & Angelo's Kitchen + Bar", "image": "https://photos.bandsintown.com/thumb/8713292.jpeg"}, {"title": "Billy Horn Altamirano", "description": "Niagara River Cruise", "date": "Jul. 16th, 2021", "address": "1173 W River Rd, Grand Island, NY 14072", "about": "A night of music and comedy on the Niagara River with Rebecca Christie, Andy Kuhn and Billy Horn Altamirano", "hours": "7:00 PM", "local": "Niagara Falls Boat Tours", "image": "https://photos.bandsintown.com/thumb/11407053.jpeg"}, {"title": "The Floyd Concept", "description": "Sound on the Ground at Chicks", "date": "Jul. 16th, 2021", "address": "Angola, NY", "about": null, "hours": "8:00 PM", "local": "Sound on the Ground at Chicks", "image": "https://photos.bandsintown.com/thumb/10459370.jpeg"}, {"title": "WELCOME DISTRACTION", "description": "Welcome Distraction @ The Transit music lounge", "date": "Jul. 16th, 2021", "address": "4723 Transit Rd, Depew, NY 14043", "about": null, "hours": "8:00 PM", "local": "Transit Music Lounge", "image": "https://photos.bandsintown.com/thumb/10068508.jpeg"}, {"title": "The McCartney Years", "description": "Riviera Theatre", "date": "Jul. 16th, 2021", "address": "67 Webster St, North Tonawanda, NY 14120", "about": "Hailed by the original Beatles promoter as 'THE BEST ON THE SCENE', The McCartney Years is a period-true, technically stunning and explosive live concert show that perfor...", "hours": "8:00 PM", "local": "Riviera Theatre", "image": "https://photos.bandsintown.com/thumb/10148620.jpeg"}, {"title": "Ryan Kaminski", "description": "Ryan Kaminski at Milkie's", "date": "Jul. 16th, 2021", "address": "522 Elmwood Ave, Buffalo, NY 14222", "about": "Great night of singer-songwriters at Milkie's featuring Christina Stock, Ryan Kaminski, Jen Karlis, and Allie Burns.\nDoors at 8:30, music at 9:00. $7 at the door. 21+", "hours": "8:30 PM", "local": "Milkie's", "image": "https://photos.bandsintown.com/thumb/11347077.jpeg"}, {"title": "Kerry Fey", "description": "*Music* Smitten for Trash Album Release!", "date": "Jul. 16th, 2021", "address": "248 Allen St, Buffalo, NY 14201", "about": "Come down and join us for the release of our new album \"Assault Charge Summer\"!! We are gunna party down with some awsome people and great bands! Check out this FIRE line...", "hours": "9:00 PM", "local": "Nietzsche's", "image": "https://photos.bandsintown.com/thumb/11026447.jpeg"}, {"title": "Chillbillys WNY", "description": "Private Party", "date": "Jul. 17th, 2021", "address": "Great Valley, NY", "about": null, "hours": "2:00 PM", "local": "Private Party", "image": "https://photos.bandsintown.com/thumb/10483145.jpeg"}, {"title": "The Hootz", "description": "The Hootz @ Zoar Valley", "date": "Jul. 17th, 2021", "address": "10711 Hammond Hill Rd, East Otto, NY 14729", "about": "Bringing The Hootz back to the Valley for some Redneck Fun! Music starts at 5PM, but the cold beers will be ready when you are! Come on out and enjoy the summer night.\n...", "hours": "5:00 PM", "local": "Zoar Valley Tavern and Restaurant", "image": "https://photos.bandsintown.com/thumb/11393111.jpeg"}, {"title": "JD Casper", "description": "The Italian American Progressive Club", "date": "Jul. 17th, 2021", "address": "1 Festival Way, Bradford, PA 16701", "about": null, "hours": "6:00 PM", "local": "The Italian American Progressive Club", "image": "https://photos.bandsintown.com/thumb/11397332.jpeg"}, {"title": "NERDS GONE WILD", "description": "NERDS GONE WILD headlines Summer Sizzler 2021!", "date": "Jul. 17th, 2021", "address": "7801 Chestnut Ridge Rd, Gasport, NY 14067", "about": "NERDS GONE WILD returns to Terry's Corners to headline the 2021 Summer Sizzler Festival!\n\nNERDS GONE WILD is Western New York's premier party band and award-winning '80s...", "hours": "7:00 PM", "local": "Terry's Corners Fire Co", "image": "https://photos.bandsintown.com/thumb/11374160.jpeg"}, {"title": null, "description": null, "date": null, "address": null, "about": null, "hours": null, "local": null, "image": null}, {"title": "E 5 C 4 P 3 - Escape - The Journey Tribute", "description": "E5C4P3 Rocks Lake Chautauqua", "date": "Jul. 17th, 2021", "address": "Mayville, Mayville, NY 14757", "about": "Come and rock out to all of your favorite Journey hits!", "hours": "8:00 PM", "local": "Lakeside Park", "image": "https://photos.bandsintown.com/thumb/11333370.jpeg"}, {"title": "Royal South", "description": "Sierra Inn", "date": "Jul. 17th, 2021", "address": "2232 Co Rd 24, Swain, NY 14884", "about": null, "hours": "8:00 PM", "local": "Sierra Inn", "image": "https://photos.bandsintown.com/thumb/8990272.jpeg"}, {"title": "Billy Horn Altamirano", "description": "Moxy Cleaveland Cabaret", "date": "Jul. 17th, 2021", "address": "1110 Elmwood Ave, Buffalo, NY 14222", "about": "An evening of music and fun with Moxy Cleaveland Cabaret and their unique brank of folk-punk-covers!", "hours": "8:00 PM", "local": "Mr. Goodbar", "image": "https://photos.bandsintown.com/thumb/11407053.jpeg"}, {"title": "SARABETH", "description": "Sierra Inn", "date": "Jul. 17th, 2021", "address": "2232 Co Rd 24, Swain, NY 14884", "about": null, "hours": "8:00 PM", "local": "Sierra Inn", "image": "https://photos.bandsintown.com/thumb/9945124.jpeg"}, {"title": "Nicole Cerminara", "description": "Jackson Triggs Estate Winery", "date": "Jul. 18th, 2021", "address": "2145 Niagara Stone Rd, Niagara On The Lake, Canada", "about": null, "hours": "1:00 PM", "local": "Jackson Triggs Estate Winery", "image": "https://photos.bandsintown.com/thumb/8713292.jpeg"}, {"title": "JD Casper", "description": "Bradford Brew Station", "date": "Jul. 18th, 2021", "address": "104 Chestnut St, Bradford, PA 16701", "about": null, "hours": "3:00 PM", "local": "Bradford Brew Station", "image": "https://photos.bandsintown.com/thumb/11363067.jpeg"}, {"title": "Chillbillys WNY", "description": "Chillin at the Conservation Club Franklinville NY!!", "date": "Jul. 18th, 2021", "address": "3040 Bakerstand Rd, Franklinville, NY 14737", "about": null, "hours": "3:00 PM", "local": "Franklinville Conservation Club", "image": "https://photos.bandsintown.com/thumb/10483145.jpeg"}, {"title": "Weapons Of Anew", "description": "The Rapids Theatre", "date": "Jul. 18th, 2021", "address": "1711 Main St, Niagara Falls, NY 14305", "about": null, "hours": "6:00 PM", "local": "The Rapids Theatre", "image": "https://photos.bandsintown.com/thumb/11004232.jpeg"}, {"title": "The Yachtfathers", "description": "The Yachtfathers - Yacht Rock at Banchetti's \"Groovin in the Grove\" Concert Series!", "date": "Jul. 21st, 2021", "address": "550 N French Rd, Buffalo, NY 14228", "about": "The Yachtfathers perform at Banchetti's Groovin' in the Grove Concert Series!\n\nFrom the creators of NERDS GONE WILD, we bring you Western New York's premier Yacht Rock Tr...", "hours": "6:00 PM", "local": "Banchetti By Rizzo's", "image": "https://photos.bandsintown.com/thumb/11388133.jpeg"}, {"title": "Miller and The Other Sinners", "description": "Miller and The Other Sinners at Sunset Bar and Grill", "date": "Jul. 21st, 2021", "address": "3 Oconnell Island, Wilson, NY 14172", "about": "Miller and his \"Sinners\" brings their brand of southern soul to Sunset Grill!", "hours": "6:00 PM", "local": "Sunset Bar and Grill", "image": "https://photos.bandsintown.com/thumb/11258124.jpeg"}, {"title": "Asleep at the Wheel", "description": "Sportsmen's Tavern", "date": "Jul. 21st, 2021", "address": "326 Amherst St, Buffalo, NY 14207", "about": null, "hours": "7:00 PM", "local": "Sportsmen's Tavern", "image": "https://photos.bandsintown.com/thumb/9993901.jpeg"}, {"title": "Bad Wolves", "description": "Darien Lake Amphitheater", "date": "Jul. 21st, 2021", "address": "9993 Alleghany Rd, Darien Center, NY 14040", "about": null, "hours": "7:00 PM", "local": "Darien Lake Amphitheater", "image": "https://photos.bandsintown.com/thumb/10013893.jpeg"}, {"title": "Chanticleer", "description": "Chautauqua Amphitheater", "date": "Jul. 21st, 2021", "address": "31 Roberts Ave, Chautauqua, NY 14722", "about": null, "hours": "8:15 PM", "local": "Chautauqua Amphitheater", "image": "https://photos.bandsintown.com/thumb/10387929.jpeg"}, {"title": "Nicole Cerminara", "description": "Ravine Vineyard Estate Winery", "date": "Jul. 22nd, 2021", "address": "1366 York Rd, Niagara-on-the-Lake, Canada", "about": null, "hours": "12:00 PM", "local": "Ravine Vineyard Estate Winery", "image": "https://photos.bandsintown.com/thumb/8713292.jpeg"}, {"title": "Miller and The Other Sinners", "description": "Miller and The Other Sinners at Thursday & Main", "date": "Jul. 22nd, 2021", "address": "Fountain Plaza, Buffalo, NY", "about": "Miller and his \"Sinners\" brings their brand of southern soul to Thursday & Main!\n\nBuffalo Place will proudly produce the free outdoor summer series, Thursday & Main, week...", "hours": "5:00 PM", "local": "Thursday & Main", "image": "https://photos.bandsintown.com/thumb/11258124.jpeg"}, {"title": "Chillbillys WNY", "description": "Party in the patio at the Ole Hickory!!", "date": "Jul. 22nd, 2021", "address": "56 Hickory St, Salamanca, NY 14779", "about": null, "hours": "6:00 PM", "local": "Ole Hickory Tavern", "image": "https://photos.bandsintown.com/thumb/10483145.jpeg"}, {"title": "NERDS GONE WILD", "description": "NERDS GONE WILD (Private Event)", "date": "Jul. 22nd, 2021", "address": "305 Spindrift Dr, Williamsville, NY 14221", "about": "Nerds Gone Wild @ Private Event Performance.", "hours": "7:00 PM", "local": "The Financial Guys Insurance Agency", "image": "https://photos.bandsintown.com/thumb/11374205.jpeg"}, {"title": "Skid Row", "description": "Batavia Downs Gaming", "date": "Jul. 23rd, 2021", "address": "8315 Park Rd, Batavia, NY 14020", "about": null, "hours": "5:00 PM", "local": "Batavia Downs Gaming", "image": "https://photos.bandsintown.com/thumb/11381869.jpeg"}, {"title": "Chillbillys WNY", "description": "Angees Chillin on North Union in Olean!!", "date": "Jul. 23rd, 2021", "address": "475 N Union St, Olean, NY 14760", "about": null, "hours": "6:00 PM", "local": "Angee's Restaurant", "image": "https://photos.bandsintown.com/thumb/10483145.jpeg"}, {"title": "Mayday Buffalo", "description": "Angry Buffalo @ The Rose Garden - 7-10 pm", "date": "Jul. 23rd, 2021", "address": "2753 Wehrle Dr, Williamsville, NY 14221", "about": "7-10 PM\n2753 Wehrle Dr, Williamsville, NY 14221", "hours": "7:00 PM", "local": "Angry Buffalo @ The Rose Garden", "image": "https://photos.bandsintown.com/thumb/11450308.jpeg"}, {"title": "The Knight Crew", "description": "The Rapids Theatre", "date": "Jul. 23rd, 2021", "address": "1711 Main St, Niagara Falls, NY 14305", "about": null, "hours": "7:00 PM", "local": "The Rapids Theatre", "image": "https://assets.prod.bandsintown.com/images/fallbackImage.png"}, {"title": "The Hootz", "description": "The Hootz @ The Parkwood Tavern", "date": "Jul. 23rd, 2021", "address": "659 E State St, Olean, NY 14760", "about": "SUMMER TIME in Olean, NY...bringing back The Hootz for a celebratory B-day Party for Adam, owner of The Parkwood, and Mr. Luke, guitarist of The Hootz.\n\nSHOTS, SHOTS, S...", "hours": "7:00 PM", "local": "Stavish's Parkwood Tavern", "image": "https://photos.bandsintown.com/thumb/11346167.jpeg"}, {"title": "Billy Horn Altamirano", "description": "The Knight Crew W/ BD2", "date": "Jul. 23rd, 2021", "address": "1711 Main St, Niagara Falls, NY 14305", "about": "BD2 returns to the stage after more than 15 months!", "hours": "7:00 PM", "local": "The Rapids Theatre", "image": "https://photos.bandsintown.com/thumb/11407053.jpeg"}, {"title": "Ion Sky", "description": "Ion Sky at The Fish", "date": "Jul. 23rd, 2021", "address": "61 Lakeside Dr, Bemus Point, NY 14712", "about": "Ion Sky rocks The Fish 7-11pm", "hours": "7:00 PM", "local": "The Fish", "image": "https://photos.bandsintown.com/thumb/11094074.jpeg"}, {"title": "BD2", "description": "The Knight Crew W/ BD2", "date": "Jul. 23rd, 2021", "address": "1711 Main St, Niagara Falls, NY 14305", "about": null, "hours": "7:00 PM", "local": "The Rapids Theatre", "image": "https://photos.bandsintown.com/thumb/11407218.jpeg"}, {"title": "Chris Bethmann", "description": "Chris Bethmann at the Lockport Community Market", "date": "Jul. 24th, 2021", "address": "57 Canal St, Lockport, NY 14094", "about": null, "hours": "11:00 AM", "local": "Lockport Community Market", "image": "https://photos.bandsintown.com/thumb/8653522.jpeg"}, {"title": "Chillbillys WNY", "description": "Backyard Chillin at the Model T Inn!", "date": "Jul. 24th, 2021", "address": "555 Derrick Rd, Derrick City, PA 16727", "about": null, "hours": "3:00 PM", "local": "Model T Inn", "image": "https://photos.bandsintown.com/thumb/10483145.jpeg"}, {"title": "The Yachtfathers", "description": "The Yachtfathers - Yacht Rock at The Fish! (Bemus Point, NY)", "date": "Jul. 24th, 2021", "address": "61 Lakeside Dr, Bemus Point, NY 14712", "about": "Its a Yacht Rock Party with The Yachtfathers at The Fish in Bemus Point, NY!\n\nFrom the creators of NERDS GONE WILD, we bring you Western New York's premier Yacht Rock Tri...", "hours": "3:00 PM", "local": "The Fish", "image": "https://photos.bandsintown.com/thumb/11388214.jpeg"}, {"title": "Marshmellow Overcoat", "description": "Kids and Cancer Benefit", "date": "Jul. 24th, 2021", "address": "E Main St, Bradford, PA 16701", "about": null, "hours": "4:00 PM", "local": "Kids and Cancer Benefit", "image": "https://photos.bandsintown.com/thumb/8569942.jpeg"}, {"title": "Ryan Kaminski", "description": "Ryan Kaminski at Penny Lane", "date": "Jul. 24th, 2021", "address": "10255 Main St, Clarence, NY 14031", "about": "Penny Lane\u2019s summer courtyard concert series featuring Buffalo singer-songwriter Ryan Kaminski.\n\nhttps://fb.me/e/1pU7l...", "hours": "4:00 PM", "local": "Penny Lane Cafe", "image": "https://photos.bandsintown.com/thumb/11347000.jpeg"}, {"title": "The Hootz", "description": "The Hootz @ Onofest 2021", "date": "Jul. 24th, 2021", "address": "704 W Perimeter Rd, Steamburg, NY 14783", "about": "Summer lovin' just sittin on the dock of the Onoville Marina. Food, crafts, music, boating, and more. Music by The Hootz at 5PM-7PM. Come early and stay late as this i...", "hours": "5:00 PM", "local": "Onoville Marina", "image": "https://photos.bandsintown.com/thumb/11393097.jpeg"}, {"title": "XOXO Pop Band", "description": "XOXO at Buffalo Riverworks Labatt Concert Series", "date": "Jul. 24th, 2021", "address": "359 Ganson St, Buffalo, NY 14203", "about": null, "hours": "7:00 PM", "local": "Buffalo RiverWorks", "image": "https://photos.bandsintown.com/thumb/9049355.jpeg"}, {"title": "Carmen & Lizzy", "description": "Carmen & Lizzy at Live Edge Brewing", "date": "Jul. 25th, 2021", "address": "2100 Coomer Rd, Burt, NY 14028", "about": "Join us for a Sunday afternoon of music and cold beers!", "hours": "1:00 PM", "local": "Live Edge Brewing Company", "image": "https://photos.bandsintown.com/thumb/11348018.jpeg"}, {"title": "Drew Green", "description": "Mister's Bar and Lanes", "date": "Jul. 25th, 2021", "address": "206 Main St, East Aurora, NY 14052", "about": null, "hours": "2:00 PM", "local": "Mister's Bar and Lanes", "image": "https://photos.bandsintown.com/thumb/11321408.jpeg"}, {"title": "Chillbillys WNY", "description": "Private party", "date": "Jul. 25th, 2021", "address": "East Otto, NY", "about": null, "hours": "5:00 PM", "local": "Private party", "image": "https://photos.bandsintown.com/thumb/10483145.jpeg"}, {"title": "Miller and The Other Sinners", "description": "Miller and The Other Sinners at Freedom Run Winery", "date": "Jul. 25th, 2021", "address": "5138 Lower Mountain Rd, Lockport, NY 14094", "about": "Miller and his \"Sinners\" brings their brand of southern soul to Freedom Run Winery!", "hours": "5:00 PM", "local": "Freedom Run Winery", "image": "https://photos.bandsintown.com/thumb/11258124.jpeg"}, {"title": "John Cooper", "description": "Six Flags Darien Lake", "date": "Jul. 25th, 2021", "address": "9993 Alleghany Rd, Darien Center, NY 14040", "about": null, "hours": "7:00 PM", "local": "Six Flags Darien Lake", "image": "https://photos.bandsintown.com/thumb/208154.jpeg"}, {"title": "Verses", "description": "Six Flags Darien Lake", "date": "Jul. 25th, 2021", "address": "9993 Alleghany Rd, Darien Center, NY 14040", "about": null, "hours": "7:00 PM", "local": "Six Flags Darien Lake", "image": "https://photos.bandsintown.com/thumb/8524708.jpeg"}, {"title": "Ledger", "description": "Six Flags Darien Lake", "date": "Jul. 25th, 2021", "address": "9993 Alleghany Rd, Darien Center, NY 14040", "about": null, "hours": "7:00 PM", "local": "Six Flags Darien Lake", "image": "https://photos.bandsintown.com/thumb/8623655.jpeg"}, {"title": "Reggie Dabbs", "description": "Six Flags Darien Lake", "date": "Jul. 25th, 2021", "address": "9993 Alleghany Rd, Darien Center, NY 14040", "about": null, "hours": "7:00 PM", "local": "Six Flags Darien Lake", "image": "https://assets.prod.bandsintown.com/images/fallbackImage.png"}, {"title": "Alyssa Trahan", "description": "Silver Lake Drive In w/ Maddie & Tae", "date": "Jul. 25th, 2021", "address": "7037 Chapman Ave, Perry, NY 14530", "about": "Select ticket types, then hit Add to Cart.\n\n1. Choose Tickets\nThere is a 10 ticket limit per customer.\n\nTICKET TYPEITEM PRICESRV FEEQTY\nVIP Pods (Tier 1) - 5 People\nSold...", "hours": "8:00 PM", "local": "Silver Lake Twin Drive In Theatre", "image": "https://photos.bandsintown.com/thumb/11382266.jpeg"}, {"title": "Maddie & Tae", "description": "Silver Lake Twin Drive In Theatre", "date": "Jul. 25th, 2021", "address": "7037 Chapman Ave, Perry, NY 14530", "about": "Maddie & Tae w/ Special Guests", "hours": "8:00 PM", "local": "Silver Lake Twin Drive In Theatre", "image": "https://photos.bandsintown.com/thumb/9617826.jpeg"}, {"title": "Maddie and Tae", "description": "Silver Lake Twin Drive In Theatre", "date": "Jul. 25th, 2021", "address": "7037 Chapman Ave, Perry, NY 14530", "about": null, "hours": "8:00 PM", "local": "Silver Lake Twin Drive In Theatre", "image": "https://photos.bandsintown.com/thumb/11257133.jpeg"}, {"title": "Building 429", "description": "Six Flags Darien Lake", "date": "Jul. 25th, 2021", "address": "9993 Alleghany Rd, Darien Center, NY 14040", "about": null, "hours": "9:30 PM", "local": "Six Flags Darien Lake", "image": "https://photos.bandsintown.com/thumb/11327955.jpeg"}, {"title": "NERDS GONE WILD", "description": "NERDS GONE WILD at Music Mania Mondays with special guests IMPACT", "date": "Jul. 26th, 2021", "address": "7000 Lockport Rd, Niagara Falls, NY 14305", "about": "NERDS GONE WILD returns to Town of Niagara to headline the Music Mania Mondays! With special guests IMPACT.\n\nImpact starts the show at 6:30pm\nNERDS hits the stage at 8p...", "hours": "6:30 PM", "local": "Town of Niagara Recreation", "image": "https://photos.bandsintown.com/thumb/11374238.jpeg"}, {"title": "Phil Joel", "description": "Kingdom Bound W/NEWSBOYS UNITED", "date": "Jul. 26th, 2021", "address": "9993 Alleghany Rd, Darien Center, NY 14040", "about": "Phil will be back on stage with his old band mates, this time as Newsboys United at Kingdom Bound, NY", "hours": "9:00 PM", "local": "Six Flags Darien Lake", "image": "https://photos.bandsintown.com/thumb/11343090.jpeg"}, {"title": "Western Centuries", "description": "Palmer Opera House", "date": "Jul. 27th, 2021", "address": "12 W Main St, Cuba, NY 14727", "about": null, "hours": "6:30 PM", "local": "Palmer Opera House", "image": "https://photos.bandsintown.com/thumb/10069912.jpeg"}, {"title": "Lucy Dacus", "description": "Artpark Outdoor Amphitheater", "date": "Jul. 27th, 2021", "address": "450 South 4 Street, Lewiston, NY 14092", "about": null, "hours": "7:00 PM", "local": "Artpark Outdoor Amphitheater", "image": "https://photos.bandsintown.com/thumb/11200793.jpeg"}, {"title": "Bright Eyes", "description": "Artpark Outdoor Amphitheater", "date": "Jul. 27th, 2021", "address": "450 South 4 Street, Lewiston, NY 14092", "about": null, "hours": "7:00 PM", "local": "Artpark Outdoor Amphitheater", "image": "https://photos.bandsintown.com/thumb/9979181.jpeg"}, {"title": "NERDS GONE WILD", "description": "NERDS GONE WILD at Gateway Harbor Concert Series! With special guests 1980 SOMETHING", "date": "Jul. 28th, 2021", "address": "Sweeney St, North Tonawanda, NY 14120", "about": "NERDS GONE WILD returns to Gateway Harbor to headline the Wednesday Concert Series! With special guests 1980 Something.\n\n1980 Something starts the show at 6:00pm\nNERDS ...", "hours": "6:00 PM", "local": "North Tonawanda Gateway Park", "image": "https://photos.bandsintown.com/thumb/11374289.jpeg"}, {"title": "Nicole Cerminara", "description": "Ravine Vineyard Estate Winery", "date": "Jul. 29th, 2021", "address": "1366 York Rd, Niagara-on-the-Lake, Canada", "about": null, "hours": "12:00 PM", "local": "Ravine Vineyard Estate Winery", "image": "https://photos.bandsintown.com/thumb/8713292.jpeg"}, {"title": "Chillbillys WNY", "description": "Bike Night at the Station!!!", "date": "Jul. 29th, 2021", "address": "5386 Depot St, West Valley, NY 14171", "about": null, "hours": "6:00 PM", "local": "The Station Bistro", "image": "https://photos.bandsintown.com/thumb/10483145.jpeg"}, {"title": "The Floyd Concept", "description": "Thursdays On The Water", "date": "Jul. 29th, 2021", "address": "1300 River Rd, North Tonawanda, NY 14120", "about": null, "hours": "6:30 PM", "local": "Thursdays On The Water", "image": "https://photos.bandsintown.com/thumb/10459370.jpeg"}, {"title": "Nicole Cerminara", "description": "Johnny Rocco's Italian Grill", "date": "Jul. 29th, 2021", "address": "6889 Lundy's Ln, Niagara Falls, Canada", "about": null, "hours": "7:00 PM", "local": "Johnny Rocco's Italian Grill", "image": "https://photos.bandsintown.com/thumb/8713292.jpeg"}, {"title": "Run The Jewels", "description": "KeyBank Center", "date": "Jul. 29th, 2021", "address": "1 Seymour H. Knox III Plaza, Buffalo, NY 14203", "about": null, "hours": "8:00 PM", "local": "KeyBank Center", "image": "https://photos.bandsintown.com/thumb/7617835.jpeg"}, {"title": "Kerry Fey", "description": "*BIF '21* Kerry Fey @ Nietzsche's (music)", "date": "Jul. 29th, 2021", "address": "248 Allen St, Buffalo, NY 14201", "about": "First of four performances for Buffalo Infringement Festival 2021", "hours": "11:00 PM", "local": "Nietzsche's", "image": "https://photos.bandsintown.com/thumb/11026447.jpeg"}, {"title": "XOXO Pop Band", "description": "XOXO Duo at Riverworks", "date": "Jul. 30th, 2021", "address": "359 Ganson St, Buffalo, NY 14203", "about": null, "hours": "1:00 PM", "local": "Buffalo RiverWorks", "image": "https://photos.bandsintown.com/thumb/9049355.jpeg"}, {"title": "Jeff Howell's Boogie du Jour", "description": "Jam At The Ridge", "date": "Jul. 30th, 2021", "address": "8101 Conlon Rd, Le Roy, NY 14482", "about": null, "hours": "4:00 PM", "local": "Jam At The Ridge", "image": "https://photos.bandsintown.com/thumb/10284247.jpeg"}, {"title": "Western Centuries", "description": "Sportsmen's Tavern", "date": "Jul. 30th, 2021", "address": "326 Amherst St, Buffalo, NY 14207", "about": null, "hours": "5:30 PM", "local": "Sportsmen's Tavern", "image": "https://photos.bandsintown.com/thumb/10069912.jpeg"}, {"title": "Chillbillys WNY", "description": "Ellicottville Brewing on Chautauqua", "date": "Jul. 30th, 2021", "address": "57 Lakeside Dr, Bemus Point, NY 14712", "about": null, "hours": "6:00 PM", "local": "Ellicottville Brewing on Chautauqua", "image": "https://photos.bandsintown.com/thumb/10483145.jpeg"}, {"title": "Reggie Dabbs", "description": "The Chapel", "date": "Jul. 30th, 2021", "address": "500 CrossPoint Parkway, Getzville, NY 14068", "about": "This is an OUTDOOR Event. You must bring your own chair or blanket. \nWe'll have food options including food trucks, lawn games and merchandise for sale.", "hours": "7:00 PM", "local": "The Chapel", "image": "https://assets.prod.bandsintown.com/images/fallbackImage.png"}, {"title": "Stephen Stanley Music", "description": "A NIGHT WITH KINGDOM BOUND", "date": "Jul. 30th, 2021", "address": "2435 Hopkins Rd, Getzville, NY 14068", "about": null, "hours": "7:00 PM", "local": "The Apex, The Chapel At Crosspoint", "image": "https://photos.bandsintown.com/thumb/11208703.jpeg"}, {"title": "Schism", "description": "The Rapids Theatre", "date": "Jul. 30th, 2021", "address": "1711 Main St, Niagara Falls, NY 14305", "about": null, "hours": "7:00 PM", "local": "The Rapids Theatre", "image": "https://photos.bandsintown.com/thumb/9619788.jpeg"}, {"title": "Stephen Stanley", "description": "The Chapel", "date": "Jul. 30th, 2021", "address": "500 CrossPoint Parkway, Getzville, NY 14068", "about": "This is an OUTDOOR Event. You must bring your own chair or blanket. \nWe'll have food options including food trucks, lawn games and merchandise for sale.", "hours": "7:00 PM", "local": "The Chapel", "image": "https://assets.prod.bandsintown.com/images/fallbackImage.png"}, {"title": "WELCOME DISTRACTION", "description": "Welcome Distraction @ Penny Lane", "date": "Jul. 30th, 2021", "address": "10255 Main St, Clarence, NY 14031", "about": null, "hours": "7:00 PM", "local": "Penny Lane Cafe", "image": "https://photos.bandsintown.com/thumb/10068508.jpeg"}, {"title": "Zach Williams", "description": "A NIGHT WITH KINGDOM BOUND", "date": "Jul. 30th, 2021", "address": "2435 Hopkins Rd, Getzville, NY 14068", "about": null, "hours": "7:00 PM", "local": "The Apex, The Chapel At Crosspoint", "image": "https://photos.bandsintown.com/thumb/8143204.jpeg"}, {"title": "NERDS GONE WILD", "description": "NERDS GONE WILD (Private Event)", "date": "Jul. 30th, 2021", "address": "291 Grote St, Buffalo, NY 14207", "about": "Nerds Gone Wild @ Private Event Performance.", "hours": "7:00 PM", "local": "Elwood Fire Protection", "image": "https://photos.bandsintown.com/thumb/11328063.jpeg"}, {"title": "Pat Harrington", "description": "Balloons Restaurant & Night Club", "date": "Jul. 30th, 2021", "address": "20 Monroe St, Ellicottville, NY 14731", "about": null, "hours": "7:30 PM", "local": "Balloons Restaurant & Night Club", "image": "https://assets.prod.bandsintown.com/images/fallbackImage.png"}, {"title": "Straight No Chaser", "description": "Chautauqua Institution", "date": "Jul. 30th, 2021", "address": "1 Ames Ave, Chautauqua, NY 14722", "about": null, "hours": "8:15 PM", "local": "Chautauqua Institution", "image": "https://photos.bandsintown.com/thumb/9525482.jpeg"}, {"title": "Kerry Fey", "description": "*BIF '21* The Glam Vamps @ Mohawk Place (burlesque)", "date": "Jul. 30th, 2021", "address": "47 E Mohawk St, Buffalo, NY 14203", "about": "Second of four performances for Buffalo Infringement Festival 2021", "hours": "11:00 PM", "local": "MOHAWK PLACE", "image": "https://photos.bandsintown.com/thumb/11026447.jpeg"}, {"title": "WELCOME DISTRACTION", "description": "Private Event", "date": "Jul. 31st, 2021", "address": "Clarence, NY", "about": null, "hours": "12:00 PM", "local": "Private Event", "image": "https://photos.bandsintown.com/thumb/10068508.jpeg"}, {"title": "Chillbillys WNY", "description": "Springville Fiddlefest", "date": "Jul. 31st, 2021", "address": "17 Franklin St , Springville, NY 14141", "about": null, "hours": "2:00 PM", "local": "Springville Fiddlefest", "image": "https://photos.bandsintown.com/thumb/10483145.jpeg"}, {"title": "Blue \u00d6yster Cult", "description": "Jam At The Ridge", "date": "Jul. 31st, 2021", "address": "8101 Conlon Rd, Le Roy, NY 14482", "about": null, "hours": "4:00 PM", "local": "Jam At The Ridge", "image": "https://photos.bandsintown.com/thumb/8098700.jpeg"}, {"title": "Juvenile Characteristics", "description": "Big Inlet Brewing", "date": "Jul. 31st, 2021", "address": "6169 Elm Flat Rd, Mayville, NY 14757", "about": "JC is headed north!! We love our fans from New York, and we can't wait to play this \"new-to-us\" venue!!", "hours": "5:30 PM", "local": "Big Inlet Brewing", "image": "https://photos.bandsintown.com/thumb/8631796.jpeg"}, {"title": "Strait South!", "description": "Southern Country BBQ & Wine Night!", "date": "Jul. 31st, 2021", "address": "3100 Glen Rd, Lincoln, Canada", "about": "YEEHAW! Strap on those cowboy boots and throw on that hat for Country night at Calamus Winery.\n\nEnjoy a night full of Southern BBQ, Live Country Music, and Lawn Games.\n\nD...", "hours": "7:00 PM", "local": "Calamus Estate Winery", "image": "https://photos.bandsintown.com/thumb/11493680.jpeg"}, {"title": "NERDS GONE WILD", "description": "Yacht & NERDY! NERDS GONE WILD & The Yachtfathers (PRIVATE EVENT)", "date": "Jul. 31st, 2021", "address": "5324 Rogers Rd, Hamburg, NY 14075", "about": "**PRIVATE EVENT**\n\nNERDS GONE WILD with The Yachtfathers.\n\nOpening the show is The Yachtfathers (Yacht Rock), featuring members of Nerds Gone Wild.\n\nNERDS GONE WILD is We...", "hours": "7:00 PM", "local": "Brierwood Country Club", "image": "https://photos.bandsintown.com/thumb/11374301.jpeg"}, {"title": "The Yachtfathers", "description": "YACHT & NERDY! NERDS GONE WILD & The Yachtfathers at Cloverbank C.C.!", "date": "Jul. 31st, 2021", "address": "5324 Rogers Rd, Hamburg, NY 14075", "about": "NERDS GONE WILD with The Yachtfathers at Cloverbank Country Club.\nOpening the show is The Yachtfathers (Yacht Rock), featuring members of Nerds Gone Wild.\nNERDS GONE WILD...", "hours": "7:00 PM", "local": "Brierwood Country Club", "image": "https://photos.bandsintown.com/thumb/11388243.jpeg"}, {"title": "Benny Bleu", "description": "Camp Out and Stargaze with Benny Bleu! @Cherry Hill Campground", "date": "Jul. 31st, 2021", "address": "1516 Sumner Rd, Darien Center, NY 14040", "about": "You must have a camping reservation for this show - check it out at cherryhillcamp.com! Click the PRESALE button to reserve a spot, use promo code BENNY ----->", "hours": "7:00 PM", "local": "Cherry Hill Campground", "image": "https://photos.bandsintown.com/thumb/11251940.jpeg"}, {"title": "Darkwater", "description": "The Rapids Theatre", "date": "Jul. 31st, 2021", "address": "1711 Main St, Niagara Falls, NY 14305", "about": null, "hours": "7:00 PM", "local": "The Rapids Theatre", "image": "https://photos.bandsintown.com/thumb/171289.jpeg"}, {"title": "Chillbillys WNY", "description": "Private Party", "date": "Jul. 31st, 2021", "address": "Franklinville, NY", "about": null, "hours": "8:00 PM", "local": "Private Party", "image": "https://photos.bandsintown.com/thumb/10483145.jpeg"}, {"title": "Paul Thorn", "description": "Sportsmen's Park", "date": "Aug. 1st, 2021", "address": "334 Amherst St, Buffalo, NY 14207", "about": "The Paul Thorn Band, rain or shine.", "hours": "2:00 PM", "local": "Sportsmen's Park", "image": "https://photos.bandsintown.com/thumb/8367149.jpeg"}, {"title": "Pat Harrington", "description": "Owen Eichensehr & Pat Harrington Duo", "date": "Aug. 1st, 2021", "address": "1 Short St, Lockport, NY 14094", "about": null, "hours": "3:00 PM", "local": "Short Street Bar", "image": "https://assets.prod.bandsintown.com/images/fallbackImage.png"}, {"title": "The Hootz", "description": "The Hootz DUO SHOW @ Carpie's on Cuba Lake", "date": "Aug. 1st, 2021", "address": "381 N Shore Rd, Cuba, NY 14727", "about": "Sunshine, Beers, and your friends, Luke & Ange playing laid back acoustic duo music! Come on out and enjoy the beautiful Summer day on Cuba Lake! Party starts at 3PM", "hours": "3:00 PM", "local": "Carpie's Grill", "image": "https://photos.bandsintown.com/thumb/11359947.jpeg"}, {"title": "Chillbillys WNY", "description": "Coffee Shop Chillin' in Franklinville Park", "date": "Aug. 1st, 2021", "address": "5 Pine St, Franklinville, NY 14737", "about": null, "hours": "3:00 PM", "local": "The Coffee Shop", "image": "https://photos.bandsintown.com/thumb/10483145.jpeg"}, {"title": "Kerry Fey", "description": "*BIF '21* Kerry Fey @ Scoop Shop (music)", "date": "Aug. 1st, 2021", "address": "648 Auburn Ave , Buffalo, NY 14209", "about": "Third of four performances for Buffalo Infringement Festival 2021", "hours": "4:00 PM", "local": "Scoop Shop", "image": "https://photos.bandsintown.com/thumb/11026447.jpeg"}, {"title": "WELCOME DISTRACTION", "description": "Welcome Distraction @ The Niagara Hotel\u2019s Anniversary Celebration", "date": "Aug. 1st, 2021", "address": "58 N Transit St, Lockport, NY 14094", "about": null, "hours": "5:00 PM", "local": "Niagara Hotel", "image": "https://photos.bandsintown.com/thumb/10068508.jpeg"}, {"title": "The Yachtfathers", "description": "The Yachtfathers - Yacht Rock SUNDAY FUNDAY at Templeton Landing!", "date": "Aug. 1st, 2021", "address": "2 Templeton Terrace, Buffalo, NY 14202", "about": "From the creators of NERDS GONE WILD, we bring you Western New York's premier Yacht Rock Tribute, THE YACHTFATHERS! Featuring members of NERDS GONE WILD, Route 33, and Sc...", "hours": "5:00 PM", "local": "Templeton Landing Restaurant & Events", "image": "https://photos.bandsintown.com/thumb/11388277.jpeg"}, {"title": "The Association", "description": "Riviera Theatre", "date": "Aug. 1st, 2021", "address": "67 Webster St, North Tonawanda, NY 14120", "about": "THE TURTLES \u2022 GARY PUCKETT & The Union Gap \u2022 THE ASSOCIATION \u2022 CLASSICS IV \u2022 THE VOGUES \u2022 THE COWSILLS \u2014 This an evening of hit after hit\u2026after HIT!", "hours": "7:30 PM", "local": "Riviera Theatre", "image": "https://photos.bandsintown.com/thumb/11373071.jpeg"}, {"title": "C.J. Chenier", "description": "Sportsmen's Tavern: CJ Chenier and The Red Hot Louisiana Band", "date": "Aug. 2nd, 2021", "address": "326 Amherst St, Buffalo, NY 14207", "about": null, "hours": "7:00 PM", "local": "Sportsmen's Tavern", "image": "https://photos.bandsintown.com/thumb/11430633.jpeg"}, {"title": "Disciple", "description": "Honor & Glory in Jamestown, NY", "date": "Aug. 2nd, 2021", "address": "556 E 2nd St, Jamestown, NY 14701", "about": "Honor & Glory will be leading a night of worship at REALiFE Church in Jamestown, NY! Tickets will be $25 for the concert plus dinner with Honor & Glory, or attend just th...", "hours": "7:00 PM", "local": "REALiFE Church", "image": "https://photos.bandsintown.com/thumb/11469873.jpeg"}, {"title": "Faith Artist Agency", "description": "Honor & Glory", "date": "Aug. 2nd, 2021", "address": "556 E 2nd St, Jamestown, NY 14701", "about": null, "hours": "7:00 PM", "local": "REALiFE Church", "image": "https://photos.bandsintown.com/thumb/8963841.jpeg"}, {"title": "Amythyst Kiah", "description": "Chautauqua Amphitheater", "date": "Aug. 2nd, 2021", "address": "31 Roberts Ave, Chautauqua, NY 14722", "about": null, "hours": "7:00 PM", "local": "Chautauqua Amphitheater", "image": "https://photos.bandsintown.com/thumb/11102641.jpeg"}, {"title": "Demolition Derby", "description": "Cattaraugus County Fairgrounds", "date": "Aug. 2nd, 2021", "address": "501 Erie St, Little Valley, NY 14755", "about": null, "hours": "7:00 PM", "local": "Cattaraugus County Fairgrounds", "image": "https://photos.bandsintown.com/thumb/9615988.jpeg"}, {"title": "The Backseat Lovers", "description": "MOHAWK PLACE", "date": "Aug. 2nd, 2021", "address": "47 E Mohawk St, Buffalo, NY 14203", "about": null, "hours": "8:00 PM", "local": "MOHAWK PLACE", "image": "https://photos.bandsintown.com/thumb/11135682.jpeg"}, {"title": "Brothers Osborne", "description": "Artpark", "date": "Aug. 3rd, 2021", "address": "450 S 4th St, Lewiston, NY 14092", "about": "*Rescheduled from Aug 4, 2020\n\nBrothers Osborne at ArtPark in Lewiston, NY\n\nGates open at 5:00pm\n\nTickets on sale NOW", "hours": "6:30 PM", "local": "Artpark", "image": "https://photos.bandsintown.com/thumb/8439098.jpeg"}, {"title": "NERDS GONE WILD", "description": "NERDS GONE WILD 8-YEARS of 80s ANNIVERSARY BASH @ Banchetti's \"Groovin in the Grove\"", "date": "Aug. 4th, 2021", "address": "550 N French Rd, Buffalo, NY 14228", "about": "NERDS GONE WILD returns to Banchetti for our 8-YEARS of 80s ANNIVERSARY BASH at \u201cGroovin\u2019 in the Grove!\u201d\n\nCome out for GREAT FOOD, DRINKS and LIVE '80s music!!!\n\nNERDS GO...", "hours": "6:00 PM", "local": "Banchetti By Rizzo's", "image": "https://photos.bandsintown.com/thumb/10271740.jpeg"}, {"title": "The Fleetwood Mac Experience", "description": "The Fleetwood Mac Experience LIVE at Gateway Harbor", "date": "Aug. 4th, 2021", "address": "1 Young St, Tonawanda, NY 14150", "about": null, "hours": "6:00 PM", "local": "Gateway Harbor", "image": "https://photos.bandsintown.com/thumb/11437454.jpeg"}, {"title": "Margo Price", "description": "Chautauqua Institution", "date": "Aug. 4th, 2021", "address": "1 Ames Ave, Chautauqua, NY 14722", "about": "With Allison Russell", "hours": "7:00 PM", "local": "Chautauqua Institution", "image": "https://photos.bandsintown.com/thumb/11001063.jpeg"}, {"title": "Jake Hoot", "description": "Cattaraugus County Fairgrounds", "date": "Aug. 4th, 2021", "address": "501 Erie St, Little Valley, NY 14755", "about": null, "hours": "7:00 PM", "local": "Cattaraugus County Fairgrounds", "image": "https://photos.bandsintown.com/thumb/11084676.jpeg"}, {"title": "Jordan Davis", "description": "Cattaraugus County Fairgrounds", "date": "Aug. 4th, 2021", "address": "501 Erie St, Little Valley, NY 14755", "about": null, "hours": "8:00 PM", "local": "Cattaraugus County Fairgrounds", "image": "https://photos.bandsintown.com/thumb/10391923.jpeg"}, {"title": "Allison Russell", "description": "Chautauqua Amphitheater with Margo Price", "date": "Aug. 4th, 2021", "address": "31 Roberts Ave, Chautauqua, NY 14722", "about": null, "hours": "8:15 PM", "local": "Chautauqua Amphitheater", "image": "https://photos.bandsintown.com/thumb/11338136.jpeg"}, {"title": "Nicole Cerminara", "description": "Ravine Vineyard Estate Winery", "date": "Aug. 5th, 2021", "address": "1366 York Rd, Niagara-on-the-Lake, Canada", "about": null, "hours": "12:00 PM", "local": "Ravine Vineyard Estate Winery", "image": "https://photos.bandsintown.com/thumb/8713292.jpeg"}, {"title": "Chillbillys WNY", "description": "Bike night chillin at the station!!", "date": "Aug. 5th, 2021", "address": "5386 Depot St, West Valley, NY 14171", "about": null, "hours": "5:00 PM", "local": "The Station Bistro", "image": "https://photos.bandsintown.com/thumb/10483145.jpeg"}, {"title": "Ryan Kaminski", "description": "Ryan Kaminski at Nickel City BrewZ", "date": "Aug. 5th, 2021", "address": "5175 Broadway #1, Depew, NY 14043", "about": "Live music at Nickel City BrewZ featuring Buffalo singer-songwriter, Ryan Kaminski", "hours": "6:00 PM", "local": "Nickel City BrewZ", "image": "https://photos.bandsintown.com/thumb/11347022.jpeg"}, {"title": "Mayday Buffalo", "description": "Blueberry Treehouse Farm", "date": "Aug. 5th, 2021", "address": "1897 Davis Rd, West Falls, NY 14170", "about": "Mayday Buffalo", "hours": "6:30 PM", "local": "The Blueberry Treehouse Farm", "image": "https://assets.prod.bandsintown.com/images/fallbackImage.png"}, {"title": "Justin Moore", "description": "Cattaraugus County Fairgrounds", "date": "Aug. 5th, 2021", "address": "501 Erie St, Little Valley, NY 14755", "about": null, "hours": "7:00 PM", "local": "Cattaraugus County Fairgrounds", "image": "https://photos.bandsintown.com/thumb/11083400.jpeg"}, {"title": "The Struggle", "description": "Asbury Hall Babeville", "date": "Aug. 5th, 2021", "address": "341 Delaware Ave, Buffalo, NY 14202", "about": "Bruce Wojick & The Struggle with 77 Stone live in Asbury Hall", "hours": "8:00 PM", "local": "Asbury Hall Babeville", "image": "https://photos.bandsintown.com/thumb/8028248.jpeg"}, {"title": "The Hootz", "description": "The Hootz @ Catt Co Fair with Justin Moore", "date": "Aug. 5th, 2021", "address": "501 Erie St, Little Valley, NY 14755", "about": "The Cattaraugus County Fairgrounds are proud to announce Justin Moore in concert August 5th, 2021 at 8PM. Featuring Catt County's Hometown friends, Luke & Ange with thei...", "hours": "8:00 PM", "local": "Cattaraugus County Fairgrounds", "image": "https://photos.bandsintown.com/thumb/9934027.jpeg"}, {"title": "BRUCE WOJICK", "description": "Asbury Hall Babeville", "date": "Aug. 5th, 2021", "address": "341 Delaware Ave, Buffalo, NY 14202", "about": "Bruce Wojick & The Struggle with 77 Stone live in Asbury Hall", "hours": "8:00 PM", "local": "Asbury Hall Babeville", "image": "https://photos.bandsintown.com/thumb/8269254.jpeg"}, {"title": "KIDZ BOP", "description": "KIDZ BOP Live **CANCELLED**", "date": "Aug. 6th, 2021", "address": "9993 Alleghany Rd, Darien Center, NY 14040", "about": "The 2021 KIDZ BOP Live Tour has been cancelled. We plan to be back on the road as soon as we can. Stay tuned for updates on KIDZBOP.com. Tickets will be automatically ref...", "hours": "4:00 PM", "local": "Darien Lake Amphitheater", "image": "https://photos.bandsintown.com/thumb/10422189.jpeg"}, {"title": "Miller and The Other Sinners", "description": "Happy Hour with Miller and The Other Sinners at Sportsmen's", "date": "Aug. 6th, 2021", "address": "326 Amherst St, Buffalo, NY 14207", "about": "Happy Hour with Miller and The Other Sinners at Sportsmen's", "hours": "5:30 PM", "local": "Sportsmen's Tavern", "image": "https://photos.bandsintown.com/thumb/11163355.jpeg"}, {"title": "NERDS GONE WILD", "description": "NERDS GONE WILD at Fourteen Holy Helpers Summerfest!", "date": "Aug. 6th, 2021", "address": "1350 Indian Church Rd, West Seneca, NY 14224", "about": "NERDS GONE WILD return to 14 Holy Helpers to play the 2021 Summerfest!\n\nNERDS GONE WILD is Western New York's premier party band and award-winning '80s show, playing your...", "hours": "7:00 PM", "local": "Fourteen Holy Helpers Church", "image": "https://photos.bandsintown.com/thumb/11393657.jpeg"}, {"title": "The Machine", "description": "Batavia Downs Gaming", "date": "Aug. 6th, 2021", "address": "8315 Park Rd, Batavia, NY 14020", "about": null, "hours": "7:00 PM", "local": "Batavia Downs Gaming", "image": "https://photos.bandsintown.com/thumb/9063116.jpeg"}, {"title": "OneEyedJack", "description": "The Rapids Theatre", "date": "Aug. 6th, 2021", "address": "1711 Main St, Niagara Falls, NY 14305", "about": null, "hours": "7:00 PM", "local": "The Rapids Theatre", "image": "https://assets.prod.bandsintown.com/images/fallbackImage.png"}, {"title": "Best Night Ever Party", "description": "Rec Room", "date": "Aug. 6th, 2021", "address": "Buffalo, NY", "about": null, "hours": "9:00 PM", "local": "Rec Room", "image": "https://photos.bandsintown.com/thumb/11366173.jpeg"}, {"title": "John Finch", "description": "Vocations Conference", "date": "Aug. 7th, 2021", "address": "Tonawanda, Tonawanda, NY 14150", "about": null, "hours": "12:00 PM", "local": "St. Amelia Church", "image": "https://photos.bandsintown.com/thumb/9246867.jpeg"}, {"title": "Fastball", "description": "Village Music Fest", "date": "Aug. 7th, 2021", "address": "491 Water St, Youngstown, NY 14174", "about": "The 2nd annual Village Music Fest presents Grammy nominated, platinum selling 90s Rock band FASTBALL. The band saw huge success with their hits The Way, and Out of my Hea...", "hours": "12:00 PM", "local": "Youngstown Yacht Club", "image": "https://photos.bandsintown.com/thumb/11501608.jpeg"}, {"title": "Soul Patch", "description": "Resurgence Brewing Company", "date": "Aug. 7th, 2021", "address": "55 Chicago St, Buffalo, NY 14204", "about": "Rocks on Rocks Festival Presented by Resurgence Brewing Co", "hours": "1:00 PM", "local": "Resurgence Brewing Company", "image": "https://assets.prod.bandsintown.com/images/fallbackImage.png"}, {"title": "Aqueous", "description": "Resurgence Brewing Company", "date": "Aug. 7th, 2021", "address": "55 Chicago St, Buffalo, NY 14204", "about": "Rocks on Rocks Festival Presented by Resurgence Brewing Co", "hours": "1:00 PM", "local": "Resurgence Brewing Company", "image": "https://photos.bandsintown.com/thumb/9273167.jpeg"}, {"title": "Grub", "description": "Rocks on Rocks Festival", "date": "Aug. 7th, 2021", "address": "55 Chicago St, Buffalo, NY 14204", "about": "This is a new one day music festal presented by Resurgence Brewing Company and Twenty6 Productions right in the heart of downtown Buffalo. The event is being headlined by...", "hours": "1:00 PM", "local": "Resurgence Brewing Company", "image": "https://photos.bandsintown.com/thumb/11406763.jpeg"}, {"title": "Rick Ross", "description": "Buffalo Outer Harbor - Lakeside Event Site", "date": "Aug. 7th, 2021", "address": "825 Fuhrmann Blvd, Buffalo, NY 14203", "about": "Rick Ross is taking over Buffalo!", "hours": "5:00 PM", "local": "Buffalo Outer Harbor - Lakeside Event Site", "image": "https://photos.bandsintown.com/thumb/9812219.jpeg"}, {"title": "XOXO Pop Band", "description": "XOXO Trio private party", "date": "Aug. 7th, 2021", "address": "9 W Washington St, Ellicottville, NY 14731", "about": null, "hours": "7:00 PM", "local": "Ellicottville NY", "image": "https://photos.bandsintown.com/thumb/9049355.jpeg"}, {"title": "Mayday Buffalo", "description": "Britesmith Brewing", "date": "Aug. 7th, 2021", "address": "5611 Main St, Williamsville, NY 14221", "about": "Mick Solo", "hours": "7:00 PM", "local": "Britesmith Brewing", "image": "https://assets.prod.bandsintown.com/images/fallbackImage.png"}, {"title": "Back And Forth", "description": "The Rapids Theatre", "date": "Aug. 7th, 2021", "address": "1711 Main St, Niagara Falls, NY 14305", "about": null, "hours": "7:00 PM", "local": "The Rapids Theatre", "image": "https://photos.bandsintown.com/thumb/6321997.jpeg"}, {"title": "Chillbillys WNY", "description": "Chillin at the Rod n Gun!", "date": "Aug. 8th, 2021", "address": "433 E Terrace Ave, Lakewood, NY 14750", "about": null, "hours": "2:00 PM", "local": "Lakewood Rod & Gun Club Inc", "image": "https://photos.bandsintown.com/thumb/10483145.jpeg"}, {"title": "The Muckers", "description": "The Muckers on Lake Erie", "date": "Aug. 8th, 2021", "address": "1111 Fuhrmann Boulevard, Buffalo, NY 14203", "about": "Led by Buffalo-born Jeff Shaw, Atlanta Irish Rockers The Muckers hit the harbor. All ages and early!", "hours": "3:00 PM", "local": "Charlie's Boat Yard", "image": "https://photos.bandsintown.com/thumb/11430635.jpeg"}, {"title": "Marshmellow Overcoat", "description": "Brew Station - Tyler Calkins & Dave Verbocy", "date": "Aug. 8th, 2021", "address": "104 Chestnut St, Bradford, PA 16701", "about": "Tyler and Dave acoustic", "hours": "3:00 PM", "local": "Bradford Brew Station", "image": "https://photos.bandsintown.com/thumb/8569942.jpeg"}, {"title": "Sunny Side", "description": "Sunny Side, 7-Piece Jazz Band from New Orleans Live in Buffalo, NY", "date": "Aug. 8th, 2021", "address": "85 Silo City Row, Buffalo, NY 14203", "about": "Sunny Side is a jazz band based out of New Orleans, Louisiana. They are heavily influenced by the music of Louis Armstrong, Duke Ellington, Sidney Bechet, Fats Waller, Ca...", "hours": "3:30 PM", "local": "duende at silo city", "image": "https://photos.bandsintown.com/thumb/11491226.jpeg"}, {"title": "Lions Den Entertainment", "description": "Baxter Elkins live at 42 North Brewing Co", "date": "Aug. 8th, 2021", "address": "25 Pine St, East Aurora, NY 14052", "about": null, "hours": "4:00 PM", "local": "42 North Brewing Company", "image": "https://photos.bandsintown.com/thumb/11346315.jpeg"}, {"title": "Jeff Allen", "description": "Helium Comedy Club - Buffalo", "date": "Aug. 8th, 2021", "address": "30 Mississippi St, Buffalo, NY 14203", "about": "Jeff Allen is in his fifth decade as a working comedian. You may have seen him on Comedy Central, VH-1, Showtime, TBN, CBN, Family Net and numerous other television netwo...", "hours": "7:30 PM", "local": "Helium Comedy Club - Buffalo", "image": "https://photos.bandsintown.com/thumb/9775674.jpeg"}, {"title": "SpiritBox", "description": "The Rapids Theatre", "date": "Aug. 9th, 2021", "address": "1711 Main St, Niagara Falls, NY 14305", "about": null, "hours": "6:00 PM", "local": "The Rapids Theatre", "image": "https://photos.bandsintown.com/thumb/11434239.jpeg"}, {"title": "Limp Bizkit", "description": "The Limited Last Minute Post Pandemic Popup Party", "date": "Aug. 9th, 2021", "address": "1711 Main St, Niagara Falls, NY 14305", "about": null, "hours": "8:00 PM", "local": "The Rapids Theatre", "image": "https://photos.bandsintown.com/thumb/6825760.jpeg"}, {"title": "Kublai Khan", "description": "MOHAWK PLACE", "date": "Aug. 10th, 2021", "address": "47 E Mohawk St, Buffalo, NY 14203", "about": null, "hours": "6:00 PM", "local": "MOHAWK PLACE", "image": "https://photos.bandsintown.com/thumb/10258174.jpeg"}, {"title": "Chamber", "description": "MOHAWK PLACE", "date": "Aug. 10th, 2021", "address": "47 E Mohawk St, Buffalo, NY 14203", "about": null, "hours": "7:30 PM", "local": "MOHAWK PLACE", "image": "https://photos.bandsintown.com/thumb/11434554.jpeg"}, {"title": "Chillbillys WNY", "description": "Cruise night chillin at the station!!", "date": "Aug. 11th, 2021", "address": "5386 Depot St, West Valley, NY 14171", "about": null, "hours": "5:00 PM", "local": "The Station Bistro", "image": "https://photos.bandsintown.com/thumb/10483145.jpeg"}, {"title": "Nicole Cerminara", "description": "Ravine Vineyard Estate Winery", "date": "Aug. 12th, 2021", "address": "1366 York Rd, Niagara-on-the-Lake, Canada", "about": null, "hours": "12:00 PM", "local": "Ravine Vineyard Estate Winery", "image": "https://photos.bandsintown.com/thumb/8713292.jpeg"}, {"title": "Poison", "description": "New Era Field", "date": "Aug. 12th, 2021", "address": "1 Bills Dr, Orchard Park, NY 14127", "about": null, "hours": "4:30 PM", "local": "New Era Field", "image": "https://photos.bandsintown.com/thumb/8438594.jpeg"}, {"title": "Chillbillys WNY", "description": "Chillin at the station!! Bike Night!!!", "date": "Aug. 12th, 2021", "address": "5386 Depot St, West Valley, NY 14171", "about": null, "hours": "5:00 PM", "local": "The Station Bistro", "image": "https://photos.bandsintown.com/thumb/10483145.jpeg"}, {"title": "The Yachtfathers", "description": "The Yachfathers - Yacht Rock! MUSIC ON MAIN Concert Series at Glen Park Tavern", "date": "Aug. 12th, 2021", "address": "5507 Main St, Williamsville, NY 14221", "about": "It's YACHT ROCK night at Music on Main, with THE YACHTFATHERS!\n\nFrom the creators of NERDS GONE WILD, we bring you Western New York's premier Yacht Rock Tribute, THE YACH...", "hours": "6:00 PM", "local": "Glen Park Tavern", "image": "https://photos.bandsintown.com/thumb/11394004.jpeg"}, {"title": "Eric Van Houten", "description": "Jam At The Ridge", "date": "Aug. 12th, 2021", "address": "8101 Conlon Rd, Le Roy, NY 14482", "about": null, "hours": "6:00 PM", "local": "Jam At The Ridge", "image": "https://photos.bandsintown.com/thumb/8917665.jpeg"}, {"title": "Nicole Cerminara", "description": "Johnny Rocco's Italian Grill", "date": "Aug. 12th, 2021", "address": "6889 Lundy's Ln, Niagara Falls, Canada", "about": null, "hours": "7:00 PM", "local": "Johnny Rocco's Italian Grill", "image": "https://photos.bandsintown.com/thumb/8713292.jpeg"}, {"title": "Sawyer Brown", "description": "Erie County Fair & Exposition", "date": "Aug. 12th, 2021", "address": "5600 McKinley Pkwy, Hamburg, NY 14075", "about": null, "hours": "8:00 PM", "local": "Erie County Fair & Exposition", "image": "https://photos.bandsintown.com/thumb/8654817.jpeg"}, {"title": "Sawyer Brown", "description": "Erie County Fair & Exposition", "date": "Aug. 12th, 2021", "address": "5600 McKinley Pkwy, Hamburg, NY 14075", "about": null, "hours": "8:00 PM", "local": "Erie County Fair & Exposition", "image": "https://photos.bandsintown.com/thumb/8654817.jpeg"}, {"title": "Dillon Carmichael", "description": "Jam At The Ridge", "date": "Aug. 13th, 2021", "address": "8101 Conlon Rd, Le Roy, NY 14482", "about": null, "hours": "4:00 PM", "local": "Jam At The Ridge", "image": "https://photos.bandsintown.com/thumb/11178943.jpeg"}, {"title": "Queensr\u00ffche", "description": "Batavia Downs Summer Concert Series", "date": "Aug. 13th, 2021", "address": "8315 Park Rd, Batavia, NY 14020", "about": null, "hours": "5:00 PM", "local": "Batavia Downs Gaming", "image": "https://photos.bandsintown.com/thumb/11295724.jpeg"}, {"title": "ERICKSON", "description": "Rec Room", "date": "Aug. 13th, 2021", "address": "79 W Chippewa, Buffalo, NY 14202", "about": null, "hours": "6:00 PM", "local": "Rec Room", "image": "https://assets.prod.bandsintown.com/images/fallbackImage.png"}, {"title": "Lost Like Lions", "description": "Rec Room", "date": "Aug. 13th, 2021", "address": "79 W Chippewa, Buffalo, NY 14202", "about": null, "hours": "6:00 PM", "local": "Rec Room", "image": "https://assets.prod.bandsintown.com/images/fallbackImage.png"}, {"title": "Chillbillys WNY", "description": "Angees Chillin on North Union in Olean!!", "date": "Aug. 13th, 2021", "address": "475 N Union St, Olean, NY 14760", "about": null, "hours": "6:00 PM", "local": "Angee's Restaurant", "image": "https://photos.bandsintown.com/thumb/10483145.jpeg"}, {"title": "NERDS GONE WILD", "description": "Yacht & NERDY! NERDS GONE WILD & The Yachtfathers at Chick's!", "date": "Aug. 13th, 2021", "address": "8196 Erie Rd, Angola, NY 14006", "about": "NERDS GONE WILD with The Yachtfathers at Chick's in Angola, NY!\n\nOpening the show is The Yachtfathers (Yacht Rock), featuring members of Nerds Gone Wild.\n\nNERDS GONE WILD...", "hours": "6:00 PM", "local": "Chick's Restaurant and Lanes", "image": "https://photos.bandsintown.com/thumb/11374301.jpeg"}, {"title": "Lily Among Thorns", "description": "Rec Room", "date": "Aug. 13th, 2021", "address": "79 W Chippewa, Buffalo, NY 14202", "about": null, "hours": "6:00 PM", "local": "Rec Room", "image": "https://photos.bandsintown.com/thumb/7192120.jpeg"}, {"title": "Pat Harrington", "description": "Owen Eichensehr & Pat Harrington Duo", "date": "Aug. 13th, 2021", "address": "44 Prime St, Buffalo, NY 14202", "about": "**Special Performance Sailing Aboard The Spirit Of Buffalo Sailboat", "hours": "6:00 PM", "local": "Spirit of Buffalo", "image": "https://assets.prod.bandsintown.com/images/fallbackImage.png"}, {"title": "The Yachtfathers", "description": "YACHT & NERDY! NERDS GONE WILD & The Yachtfathers at Chicks!", "date": "Aug. 13th, 2021", "address": "8196 Erie Rd, Angola, NY 14006", "about": "NERDS GONE WILD with The Yachtfathers at Chick's in Angola, NY!\n\nOpening the show is The Yachtfathers (Yacht Rock), featuring members of Nerds Gone Wild.\n\nNERDS GONE WILD...", "hours": "6:00 PM", "local": "Chick's Restaurant and Lanes", "image": "https://photos.bandsintown.com/thumb/11388243.jpeg"}, {"title": "Michael Glabicki", "description": "Duo Show - Chautauqua Belle Boat Cruise", "date": "Aug. 13th, 2021", "address": "78 Water St, Mayville, NY 14757", "about": "Michael Glabicki of Rusted Root Duo with Dirk Miller\n$59\n21+\nPre-sale tickets $10 less than Day of Show (DOS) pricing. Call 716-269-2355\nChautauqua Belle\n78 Water Street\n...", "hours": "7:00 PM", "local": "Chautauqua Belle", "image": "https://photos.bandsintown.com/thumb/8452800.jpeg"}, {"title": "Jennifer Westwood And The Handsome Devils", "description": "Balloons Restaurant & Night Club", "date": "Aug. 13th, 2021", "address": "20 Monroe St, Ellicottville, NY 14731", "about": null, "hours": "7:00 PM", "local": "Balloons Restaurant & Night Club", "image": "https://photos.bandsintown.com/thumb/8409991.jpeg"}, {"title": "Lost and Found", "description": "The Rapids Theatre", "date": "Aug. 13th, 2021", "address": "1711 Main St, Niagara Falls, NY 14305", "about": null, "hours": "7:00 PM", "local": "The Rapids Theatre", "image": "https://photos.bandsintown.com/thumb/7058953.jpeg"}, {"title": "Mayday Buffalo", "description": "Transit Music & Sports Lounge - 7-10 PM", "date": "Aug. 13th, 2021", "address": "4723 Transit Rd, Depew, NY 14043", "about": "4723 Transit Road, Depew, NY 14043", "hours": "7:30 PM", "local": "Transit Music Lounge", "image": "https://photos.bandsintown.com/thumb/11463097.jpeg"}, {"title": "Nicole Cerminara", "description": "Taps Brewhouse", "date": "Aug. 13th, 2021", "address": "4680 Queen St, Niagara Falls, Canada", "about": null, "hours": "8:00 PM", "local": "Taps Brewhouse", "image": "https://photos.bandsintown.com/thumb/8713292.jpeg"}, {"title": "Benny Bleu", "description": "Perry Farmers Market", "date": "Aug. 14th, 2021", "address": "36-38 S Main St, Perry, NY 14530", "about": "Wyoming County is an agricultural hub for New York State, come get yer fresh fruits and veggies and I'll be there with the very ripest music on the market.", "hours": "10:00 AM", "local": "Perry Farmers Market", "image": "https://photos.bandsintown.com/thumb/11029300.jpeg"}, {"title": "Whiskey Myers", "description": "Jam At The Ridge", "date": "Aug. 14th, 2021", "address": "8101 Conlon Rd, Le Roy, NY 14482", "about": null, "hours": "4:00 PM", "local": "Jam At The Ridge", "image": "https://photos.bandsintown.com/thumb/9699795.jpeg"}, {"title": "Marshmellow Overcoat", "description": "Italian Festival", "date": "Aug. 14th, 2021", "address": "Bradford, PA", "about": null, "hours": "5:00 PM", "local": "Italian Festival", "image": "https://photos.bandsintown.com/thumb/8569942.jpeg"}, {"title": "Styx", "description": "Erie County Fair & Exposition", "date": "Aug. 14th, 2021", "address": "5600 McKinley Pkwy, Hamburg, NY 14075", "about": "Saturday, August 14, 2021\nErie County Fair\nHamburg, NY", "hours": "7:00 PM", "local": "Erie County Fair & Exposition", "image": "https://photos.bandsintown.com/thumb/11481364.jpeg"}, {"title": null, "description": null, "date": null, "address": null, "about": null, "hours": null, "local": null, "image": null}, {"title": "Dylan Scott", "description": "Luke Bryan's Proud To Be Right Here Tour", "date": "Aug. 14th, 2021", "address": "9993 Alleghany Rd, Darien Center, NY 14040", "about": null, "hours": "7:00 PM", "local": "Darien Lake Amphitheater", "image": "https://photos.bandsintown.com/thumb/10075197.jpeg"}, {"title": "Caylee Hammack", "description": "Luke Bryan: Proud To Be Right Here Tour", "date": "Aug. 14th, 2021", "address": "9993 Alleghany Rd, Darien Center, NY 14040", "about": "Event is rain or shine", "hours": "7:00 PM", "local": "Darien Lake Amphitheater", "image": "https://photos.bandsintown.com/thumb/10483347.jpeg"}, {"title": "Jennifer Westwood And The Handsome Devils", "description": "Balloons Restaurant & Night Club", "date": "Aug. 14th, 2021", "address": "20 Monroe St, Ellicottville, NY 14731", "about": null, "hours": "7:00 PM", "local": "Balloons Restaurant & Night Club", "image": "https://photos.bandsintown.com/thumb/8409991.jpeg"}, {"title": "Chillbillys WNY", "description": "Private Party", "date": "Aug. 14th, 2021", "address": "Byron, NY", "about": null, "hours": "7:00 PM", "local": "Private party", "image": "https://photos.bandsintown.com/thumb/10483145.jpeg"}, {"title": "Luke Bryan", "description": "Luke Bryan's Proud To Be Right Here Tour", "date": "Aug. 14th, 2021", "address": "9993 Alleghany Rd, Darien Center, NY 14040", "about": null, "hours": "7:30 PM", "local": "Darien Lake Amphitheater", "image": "https://photos.bandsintown.com/thumb/9952744.jpeg"}, {"title": "Billy Joel", "description": "New Era Field", "date": "Aug. 14th, 2021", "address": "1 Bills Dr, Orchard Park, NY 14127", "about": null, "hours": "8:00 PM", "local": "New Era Field", "image": "https://photos.bandsintown.com/thumb/7922106.jpeg"}, {"title": "CapathiaNYC", "description": "Chautauqua Symphony Orchestra: \u201cElla\u2019s Great American Songbook with Capathia Jenkins\u201d", "date": "Aug. 14th, 2021", "address": "31 Roberts Ave, Chautauqua, NY 14722", "about": "Join Chautauqua favorite Capathia Jenkins with the Chautauqua Symphony Orchestra and Principal Pops Conductor Stuart Chafetz in this tribute to the incomparable Ella Fitz...", "hours": "8:00 PM", "local": "Chautauqua Amphitheater", "image": "https://photos.bandsintown.com/thumb/8507225.jpeg"}, {"title": "Chillbillys WNY", "description": "Century Manor Chillin!", "date": "Aug. 15th, 2021", "address": "401 E State St, Olean, NY 14760", "about": null, "hours": "1:00 PM", "local": "Century Manor Grillhouse", "image": "https://photos.bandsintown.com/thumb/10483145.jpeg"}, {"title": "Jon Pardi", "description": "Erie County Fair", "date": "Aug. 15th, 2021", "address": "5600 McKinley Pkwy, Hamburg, NY 14075", "about": null, "hours": "7:00 PM", "local": "Erie County Fair & Exposition", "image": "https://photos.bandsintown.com/thumb/9501382.jpeg"}, {"title": "Jeffrey Gaines", "description": "Asbury Hall Babeville", "date": "Aug. 15th, 2021", "address": "341 Delaware Ave, Buffalo, NY 14202", "about": "Jeffrey Gaines live in the 9th Ward", "hours": "8:00 PM", "local": "Asbury Hall Babeville", "image": "https://photos.bandsintown.com/thumb/7509025.jpeg"}, {"title": "The Probables", "description": "Music on the Lawn", "date": "Aug. 16th, 2021", "address": "15 Elm, Cuba, NY 14727", "about": "The Palmer Opera House presents: Music on the Lawn\nConcert Series\nThe Probables\nLIVE\nMonday August 16th 2021\nCuba-Rushford Elementary School\n15 Elm Street, Cuba,NY\n6:00...", "hours": "6:00 PM", "local": "Music on the Lawn", "image": "https://photos.bandsintown.com/thumb/11121463.jpeg"}, {"title": "Mark Chesnutt", "description": "Hamburg Fairgrounds", "date": "Aug. 16th, 2021", "address": "5600 McKinley Pkwy, Hamburg, NY 14075", "about": null, "hours": "8:00 PM", "local": "Hamburg Fairgrounds", "image": "https://photos.bandsintown.com/thumb/11321445.jpeg"}, {"title": "The Garth Guy - The Garth Brooks Tribute Show", "description": "Garth Guy with Shades of Shania", "date": "Aug. 17th, 2021", "address": "8 Main St, Bradford, PA 16701", "about": "Tributes to Garth Brooks and Shania Twain", "hours": "7:30 PM", "local": "Bradford Creative & Performing", "image": "https://photos.bandsintown.com/thumb/11394024.jpeg"}, {"title": "Chillbillys WNY", "description": "Party on the patio at the Hickory!", "date": "Aug. 18th, 2021", "address": "56 Hickory St, Salamanca, NY 14779", "about": null, "hours": "6:00 PM", "local": "Ole Hickory Tavern", "image": "https://photos.bandsintown.com/thumb/10483145.jpeg"}, {"title": "for KING & COUNTRY", "description": "for KING & COUNTRY at Erie County Fair", "date": "Aug. 18th, 2021", "address": "5600 McKinley Pkwy, Hamburg, NY 14075", "about": null, "hours": "7:00 PM", "local": "Erie County Fair & Exposition", "image": "https://photos.bandsintown.com/thumb/10357985.jpeg"}, {"title": "Sauce Boss", "description": "Sportsmen's Tavern", "date": "Aug. 18th, 2021", "address": "326 Amherst St, Buffalo, NY 14207", "about": null, "hours": "7:00 PM", "local": "Sportsmen's Tavern", "image": "https://photos.bandsintown.com/thumb/8759420.jpeg"}, {"title": "Black Violin", "description": "Chautauqua Institution", "date": "Aug. 18th, 2021", "address": "1 Ames Ave, Chautauqua, NY 14722", "about": null, "hours": "8:00 PM", "local": "Chautauqua Institution", "image": "https://photos.bandsintown.com/thumb/9311893.jpeg"}, {"title": "Nicole Cerminara", "description": "Ravine Vineyard Estate Winery", "date": "Aug. 19th, 2021", "address": "1366 York Rd, Niagara-on-the-Lake, Canada", "about": null, "hours": "12:00 PM", "local": "Ravine Vineyard Estate Winery", "image": "https://photos.bandsintown.com/thumb/8713292.jpeg"}, {"title": "Mayday Buffalo", "description": "Eaglehouse - Mick Solo", "date": "Aug. 19th, 2021", "address": "5578 Main St, Williamsville, NY 14221", "about": null, "hours": "5:00 PM", "local": "Eagle House Restaurant", "image": "https://assets.prod.bandsintown.com/images/fallbackImage.png"}, {"title": "Leanne Morgan", "description": "Helium Comedy Club - Buffalo", "date": "Aug. 19th, 2021", "address": "30 Mississippi St, Buffalo, NY 14203", "about": null, "hours": "7:00 PM", "local": "Helium Comedy Club - Buffalo", "image": "https://photos.bandsintown.com/thumb/8927787.jpeg"}, {"title": "Cooper Alan", "description": "Erie County Fair (Grandstand)", "date": "Aug. 19th, 2021", "address": "5600 McKinley Pkwy, Hamburg, NY 14075", "about": null, "hours": "7:00 PM", "local": "Erie County Fair & Exposition", "image": "https://photos.bandsintown.com/thumb/9988627.jpeg"}, {"title": "Tom Nitti", "description": "The Stage", "date": "Aug. 19th, 2021", "address": "8166 Main St, Buffalo, NY 14221", "about": null, "hours": "8:00 PM", "local": "The Stage", "image": "https://photos.bandsintown.com/thumb/11208067.jpeg"}, {"title": "Puddle of Mudd", "description": "2021 Rockin' The Downs Concert Series", "date": "Aug. 20th, 2021", "address": "8315 Park Rd, Batavia, NY 14020", "about": "Puddle of Mudd performing LIVE on our stage at Batavia Downs Gaming & Hotel!\nAbout this event\nLearn More About Puddle of Mudd\n\nOpeners:\n\nThe Bluesway Band\n\nBruce Wocjik a...", "hours": "4:00 PM", "local": "Batavia Downs Gaming", "image": "https://photos.bandsintown.com/thumb/11296236.jpeg"}, {"title": "Joe Russo's Almost Dead", "description": "Artpark", "date": "Aug. 20th, 2021", "address": "450 S 4th St, Lewiston, NY 14092", "about": null, "hours": "5:00 PM", "local": "Artpark", "image": "https://photos.bandsintown.com/thumb/8095173.jpeg"}, {"title": "Chillbillys WNY", "description": "Chillin At the Old Library", "date": "Aug. 20th, 2021", "address": "116 S Union St, Olean, NY 14760", "about": null, "hours": "5:30 PM", "local": "The Old Library Restaurant", "image": "https://photos.bandsintown.com/thumb/10483145.jpeg"}, {"title": "The Probables", "description": "Reg Lenna Center For The Arts", "date": "Aug. 20th, 2021", "address": "116 E 3rd St, Jamestown, NY 14701", "about": "The Probables with The Town Pants\nLIVE\nFriday August 20th 2021\nReg Lenna Center for The Arts 116 East Third Street Jamestown, NY 14701\nTickets: TBA\n7:00pm", "hours": "7:00 PM", "local": "Reg Lenna Center For The Arts", "image": "https://photos.bandsintown.com/thumb/11108338.jpeg"}, {"title": "NERDS GONE WILD", "description": "NERDS GONE WILD at South Line Fire Co. Summer Bash!", "date": "Aug. 20th, 2021", "address": "1049 French Rd, Cheektowaga, NY 14227", "about": "NERDS GONE WILD head to South Line Fire District for an 80s party!\n\nNERDS GONE WILD is Western New York's premier party band and award-winning '80s show, playing your fav...", "hours": "7:00 PM", "local": "South Line Fire District", "image": "https://photos.bandsintown.com/thumb/11394059.jpeg"}, {"title": "Leanne Morgan", "description": "Helium Comedy Club - Buffalo", "date": "Aug. 20th, 2021", "address": "30 Mississippi St, Buffalo, NY 14203", "about": null, "hours": "7:00 PM", "local": "Helium Comedy Club - Buffalo", "image": "https://photos.bandsintown.com/thumb/8927787.jpeg"}, {"title": "XOXO Pop Band", "description": "XOXO Trio at Anchor Bar Amherst", "date": "Aug. 20th, 2021", "address": "4300 Maple Rd, Amherst, NY 14226", "about": null, "hours": "7:30 PM", "local": "Anchor Bar", "image": "https://photos.bandsintown.com/thumb/9049355.jpeg"}]